{
    "LRT-1": {
        "Fernando Poe Jr.": { "address": "Roosevelt Ave, Quezon City", "phone": "N/A", "description": "Northern terminus of LRT-1, connected to Waltermart and SM City Grand Central.", "amenities": [{ "name": "Mall Connection", "icon": "ShoppingBag", "location": "Waltermart, SM City Grand Central", "available": true }, { "name": "Ticket Counter & Vending Machine", "icon": "Ticket", "available": true }, { "name": "PWD Facilities", "icon": "Accessibility", "available": true }] },
        "Balintawak": { "address": "EDSA, Balintawak, Quezon City", "phone": "N/A", "description": "Connected to Balintawak Market and provides access to Ayala Malls Cloverleaf.", "amenities": [{ "name": "Nearby Market", "icon": "ShoppingBag", "location": "Balintawak Market", "available": true }, { "name": "Nearby Mall", "icon": "ShoppingBag", "location": "Ayala Malls Cloverleaf", "available": true }, { "name": "Bus Terminals", "icon": "FaTrain", "location": "North Luzon Buses", "available": true }, { "name": "Ticket Counter", "icon": "Ticket", "available": true }] },
        "Monumento": { "address": "Monumento Circle, Caloocan", "phone": "N/A", "description": "Located at the iconic Bonifacio Monument Circle.", "amenities": [{ "name": "Nearby Landmark", "icon": "FaLandmark", "location": "Bonifacio Monument", "available": true }, { "name": "Nearby Mall", "icon": "ShoppingBag", "location": "Victory Central Mall, SM City Grand Central", "available": true }, { "name": "Ticket Counter", "icon": "Ticket", "available": true }] },
        "5th Avenue": { "address": "Rizal Ave. Extension, Caloocan", "phone": "N/A", "description": "Serves the local residential and commercial areas of Caloocan.", "amenities": [{ "name": "Nearby Landmark", "icon": "FaLandmark", "location": "Thai To Taoist Temple Pagoda", "available": true }, { "name": "Ticket Counter", "icon": "Ticket", "available": true }] },
        "R. Papa": { "address": "Rizal Ave. Extension, Tondo, Manila", "phone": "N/A", "description": "A standard station serving Tondo residential area and La Loma Cemetery.", "amenities": [{ "name": "Nearby Landmark", "icon": "FaLandmark", "location": "La Loma Cemetery", "available": true }, { "name": "Ticket Counter", "icon": "Ticket", "available": true }] },
        "Abad Santos": { "address": "Abad Santos Ave, Tondo, Manila", "phone": "N/A", "description": "Located along Abad Santos Avenue, serving nearby communities.", "amenities": [{ "name": "Nearby Shopping", "icon": "ShoppingBag", "location": "Divisoria Market (via jeepney)", "available": true }, { "name": "Ticket Counter", "icon": "Ticket", "available": true }] },
        "Blumentritt": { "address": "Rizal Ave, Santa Cruz, Manila", "phone": "N/A", "description": "Interchange with the PNR Blumentritt station.", "amenities": [{ "name": "Line Transfer", "icon": "FaTrain", "location": "PNR Blumentritt", "available": true }, { "name": "Nearby Market", "icon": "ShoppingBag", "location": "Blumentritt Market", "available": true }, { "name": "Ticket Counter", "icon": "Ticket", "available": true }] },
        "Tayuman": { "address": "Rizal Ave, Santa Cruz, Manila", "phone": "N/A", "description": "Located near the SM City San Lazaro mall.", "amenities": [{ "name": "Nearby Mall", "icon": "ShoppingBag", "location": "SM City San Lazaro", "available": true }, { "name": "Nearby Landmark", "icon": "FaLandmark", "location": "Dangwa Flower Market", "available": true }, { "name": "Ticket Counter", "icon": "Ticket", "available": true }] },
        "Bambang": { "address": "Rizal Ave, Santa Cruz, Manila", "phone": "N/A", "description": "Known for its proximity to stores selling medical supplies and hospitals.", "amenities": [{ "name": "Nearby Shopping", "icon": "Info", "location": "Medical Supply Stores", "available": true }, { "name": "Nearby Landmark", "icon": "FaLandmark", "location": "University of Santo Tomas (UST)", "available": true }, { "name": "Ticket Counter", "icon": "Ticket", "available": true }] },
        "Doroteo Jose": { "address": "Rizal Ave, Santa Cruz, Manila", "phone": "N/A", "description": "Interchange station connecting to LRT-2 Recto station.", "amenities": [{ "name": "Line Transfer", "icon": "FaTrain", "location": "LRT-2 Recto", "available": true }, { "name": "Nearby Mall", "icon": "ShoppingBag", "location": "Isetann Recto", "available": true }, { "name": "Ticket Counter & Vending Machine", "icon": "Ticket", "available": true }] },
        "Carriedo": { "address": "Carriedo St, Quiapo, Manila", "phone": "N/A", "description": "Provides access to Quiapo Church, Plaza Miranda, and the market.", "amenities": [{ "name": "Nearby Landmark", "icon": "FaLandmark", "location": "Quiapo Church, Plaza Lacson", "available": true }, { "name": "Nearby Shopping", "icon": "ShoppingBag", "location": "Quiapo Market, Escolta Street", "available": true }, { "name": "Ticket Counter", "icon": "Ticket", "available": true }] },
        "Central Terminal": { "address": "Arroceros St, Ermita, Manila", "phone": "N/A", "description": "Close to the Manila City Hall and several national landmarks.", "amenities": [{ "name": "Nearby Landmark", "icon": "FaLandmark", "location": "National Museum Complex, Manila City Hall", "available": true }, { "name": "Nearby Mall", "icon": "ShoppingBag", "location": "SM City Manila", "available": true }, { "name": "Ticket Counter & Vending Machine", "icon": "Ticket", "available": true }] },
        "United Nations": { "address": "Taft Ave, Ermita, Manila", "phone": "N/A", "description": "Serves Rizal Park and the National Museum Complex.", "amenities": [{ "name": "Nearby Landmark", "icon": "FaLandmark", "location": "Rizal Park, National Library", "available": true }, { "name": "Customer Service", "icon": "UserCheck", "available": true }, { "name": "Ticket Counter", "icon": "Ticket", "available": true }] },
        "Pedro Gil": { "address": "Taft Ave, Ermita, Manila", "phone": "N/A", "description": "Located near Robinsons Place Manila and the University of the Philippines Manila.", "amenities": [{ "name": "Nearby Mall", "icon": "ShoppingBag", "location": "Robinsons Place Manila", "available": true }, { "name": "Nearby Universities", "icon": "FaLandmark", "location": "UP Manila, St. Paul University", "available": true }, { "name": "Ticket Counter", "icon": "Ticket", "available": true }] },
        "Quirino": { "address": "Taft Ave, Malate, Manila", "phone": "N/A", "description": "Provides access to the Manila Zoo and surrounding residential areas.", "amenities": [{ "name": "Nearby Landmark", "icon": "FaLandmark", "location": "Manila Zoo", "available": true }, { "name": "Nearby Mall", "icon": "ShoppingBag", "location": "Shopwise Manila", "available": true }, { "name": "Ticket Counter", "icon": "Ticket", "available": true }] },
        "Vito Cruz": { "address": "Taft Ave, Malate, Manila", "phone": "N/A", "description": "Serves De La Salle University and the Rizal Memorial Sports Complex.", "amenities": [{ "name": "Nearby Universities", "icon": "FaLandmark", "location": "De La Salle University", "available": true }, { "name": "Nearby Landmark", "icon": "Info", "location": "Rizal Memorial Sports Complex, CCP Complex", "available": true }, { "name": "Ticket Counter", "icon": "Ticket", "available": true }] },
        "Gil Puyat": { "address": "Gil Puyat Ave, Pasay", "phone": "N/A", "description": "A major hub for provincial bus terminals.", "amenities": [{ "name": "Bus Terminals", "icon": "FaTrain", "location": "Nearby bus stations", "available": true }, { "name": "Ticket Counter & Vending Machine", "icon": "Ticket", "available": true }] },
        "Libertad": { "address": "Taft Ave, Pasay", "phone": "N/A", "description": "Located near the Libertad Market in Pasay.", "amenities": [{ "name": "Nearby Market", "icon": "ShoppingBag", "location": "Libertad Market, Pasay City Hall", "available": true }, { "name": "Ticket Counter", "icon": "Ticket", "available": true }] },
        "EDSA": { "address": "Corner of EDSA and Taft Avenue, Pasay", "phone": "N/A", "hours": "4:30 AM - 10:15 PM", "description": "A major interchange station on the LRT Line 1, connecting with the MRT-3 at Taft Avenue Station.", "amenities": [{ "name": "PWD Facilities", "icon": "Accessibility", "location": "Elevators and ramps", "available": true }, { "name": "Ticket Vending Machines", "icon": "Ticket", "location": "Concourse level", "available": true }, { "name": "Connection to MRT-3", "icon": "FaTrain", "location": "via walkway to Taft Avenue", "available": true }, { "name": "Nearby Malls", "icon": "ShoppingBag", "location": "Metropoint Mall, SM Mall of Asia (via jeepney)", "available": true }, { "name": "Nearby Hotels", "icon": "BedDouble", "location": "Several budget hotels", "available": true }] },
        "Baclaran": { "address": "Taft Ave, Baclaran, Parañaque", "phone": "N/A", "description": "Southern terminus of LRT-1, located near the bustling Baclaran Market.", "amenities": [{ "name": "Nearby Market", "icon": "ShoppingBag", "location": "Baclaran Market", "available": true }, { "name": "Nearby Landmark", "icon": "FaLandmark", "location": "Baclaran Church", "available": true }, { "name": "Ticket Counter", "icon": "Ticket", "available": true }] }
    },
    "LRT-2": {
        "Antipolo": { "address": "Marcos Highway, Antipolo", "phone": "N/A", "description": "Eastern terminus of LRT-2.", "amenities": [{ "name": "Nearby Mall", "icon": "ShoppingBag", "location": "Robinsons Place Antipolo", "available": true }, { "name": "Parking", "icon": "ParkingCircle", "available": true }, { "name": "Ticket Counter & Vending Machine", "icon": "Ticket", "available": true }] },
        "Marikina-Pasig": { "address": "Marcos Highway, Santolan, Pasig", "phone": "N/A", "description": "Serves Sta. Lucia East Grand Mall and Robinsons Metro East.", "amenities": [{ "name": "Nearby Mall", "icon": "ShoppingBag", "location": "Sta. Lucia, Robinsons", "available": true }, { "name": "Ticket Counter", "icon": "Ticket", "available": true }] },
        "Santolan": { "address": "Marcos Highway, Santolan, Pasig", "phone": "N/A", "description": "Located near the line's depot and serves local communities.", "amenities": [{ "name": "Ticket Counter", "icon": "Ticket", "available": true }] },
        "Katipunan": { "address": "Katipunan Ave, Quezon City", "phone": "N/A", "description": "Serves major universities like Ateneo de Manila and Miriam College.", "amenities": [{ "name": "Nearby Universities", "icon": "FaLandmark", "location": "Ateneo, Miriam College", "available": true }, { "name": "Ticket Counter", "icon": "Ticket", "available": true }] },
        "Anonas": { "address": "Aurora Blvd, Quezon City", "phone": "N/A", "description": "Serves a commercial and residential area, near Anson's department store.", "amenities": [{ "name": "Nearby Shopping", "icon": "ShoppingBag", "location": "Anson's", "available": true }, { "name": "Ticket Counter", "icon": "Ticket", "available": true }] },
        "Cubao": { "address": "Araneta City, Cubao, Quezon City", "phone": "N/A", "description": "Interchange station with MRT-3, located within Araneta City.", "amenities": [{ "name": "Line Transfer", "icon": "FaTrain", "location": "MRT-3 Cubao", "available": true }, { "name": "Mall Connection", "icon": "ShoppingBag", "location": "Gateway Mall", "available": true }, { "name": "Ticket Counter & Vending Machine", "icon": "Ticket", "available": true }, { "name": "PWD Facilities", "icon": "Accessibility", "available": true }, { "name": "Nearby Hotels", "icon": "BedDouble", "location": "Novotel, Ibis Styles", "available": true }] },
        "Betty Go-Belmonte": { "address": "Aurora Blvd, Quezon City", "phone": "N/A", "description": "Serves the residential district of New Manila.", "amenities": [{ "name": "Ticket Counter", "icon": "Ticket", "available": true }] },
        "J. Ruiz": { "address": "Aurora Blvd, San Juan", "phone": "N/A", "description": "Serves the city of San Juan.", "amenities": [{ "name": "Ticket Counter", "icon": "Ticket", "available": true }] },
        "V. Mapa": { "address": "Magsaysay Blvd, Santa Mesa, Manila", "phone": "N/A", "description": "Located near SM City Sta. Mesa and a branch of SOGO Hotel.", "amenities": [{ "name": "Nearby Mall", "icon": "ShoppingBag", "location": "SM City Sta. Mesa", "available": true }, { "name": "Nearby Hotel", "icon": "BedDouble", "location": "SOGO Hotel", "available": true }, { "name": "Ticket Counter", "icon": "Ticket", "available": true }] },
        "Pureza": { "address": "Magsaysay Blvd, Santa Mesa, Manila", "phone": "N/A", "description": "Located near the Polytechnic University of the Philippines (PUP).", "amenities": [{ "name": "Nearby Universities", "icon": "FaLandmark", "location": "PUP", "available": true }, { "name": "Ticket Counter", "icon": "Ticket", "available": true }] },
        "Legarda": { "address": "Legarda St, Quiapo, Manila", "phone": "N/A", "description": "Serves the University Belt area.", "amenities": [{ "name": "Nearby Universities", "icon": "FaLandmark", "location": "San Beda, CEU", "available": true }, { "name": "Ticket Counter", "icon": "Ticket", "available": true }] },
        "Recto": { "address": "Recto Ave, Manila", "phone": "N/A", "description": "Western terminus and interchange station with LRT-1.", "amenities": [{ "name": "Line Transfer", "icon": "FaTrain", "location": "LRT-1 Doroteo Jose", "available": true }, { "name": "Nearby Shopping", "icon": "ShoppingBag", "location": "Divisoria Market Area", "available": true }, { "name": "Ticket Counter & Vending Machine", "icon": "Ticket", "available": true }] }
    },
    "MRT-3": {
        "North Avenue": { "address": "North Avenue cor. EDSA, Quezon City", "phone": "N/A", "description": "Northern terminus of MRT-3, connected to major malls.", "amenities": [{ "name": "Mall Connection", "icon": "ShoppingBag", "location": "TriNoma, SM North EDSA", "available": true }, { "name": "Ticket Counter & Vending Machine", "icon": "Ticket", "available": true }, { "name": "PWD Facilities", "icon": "Accessibility", "available": true }, { "name": "Nearby Hotels", "icon": "BedDouble", "location": "Seda Vertis North", "available": true }] },
        "Quezon Avenue": { "address": "Quezon Ave cor. EDSA, Quezon City", "phone": "N/A", "description": "Serves the Centris commercial area.", "amenities": [{ "name": "Nearby Mall", "icon": "ShoppingBag", "location": "Centris Station Mall", "available": true }, { "name": "Ticket Counter", "icon": "Ticket", "available": true }] },
        "Kamuning": { "address": "EDSA, Kamuning, Quezon City", "phone": "N/A", "description": "Serves nearby government offices and residential areas.", "amenities": [{ "name": "Nearby Landmark", "icon": "FaLandmark", "location": "LTO Main Office area", "available": true }, { "name": "Ticket Counter", "icon": "Ticket", "available": true }] },
        "Cubao": { "address": "Araneta City, Cubao, Quezon City", "phone": "N/A", "description": "Interchange station with LRT-2, located within Araneta City.", "amenities": [{ "name": "Line Transfer", "icon": "FaTrain", "location": "LRT-2 Cubao", "available": true }, { "name": "Mall Connection", "icon": "ShoppingBag", "location": "Gateway Mall, Farmers Plaza", "available": true }, { "name": "Ticket Counter & Vending Machine", "icon": "Ticket", "available": true }] },
        "Santolan-Annapolis": { "address": "EDSA, Quezon City", "phone": "N/A", "description": "Provides access to Greenhills Shopping Center and Camp Crame.", "amenities": [{ "name": "Nearby Shopping", "icon": "ShoppingBag", "location": "Greenhills (via jeepney/bus)", "available": true }, { "name": "Nearby Landmark", "icon": "FaLandmark", "location": "Camp Crame", "available": true }, { "name": "Ticket Counter", "icon": "Ticket", "available": true }] },
        "Ortigas": { "address": "Ortigas Ave cor. EDSA, Mandaluyong", "phone": "N/A", "description": "Located in the heart of the Ortigas Central Business District.", "amenities": [{ "name": "Mall Connection", "icon": "ShoppingBag", "location": "SM Megamall", "available": true }, { "name": "Ticket Counter & Vending Machine", "icon": "Ticket", "available": true }, { "name": "Nearby Hotels", "icon": "BedDouble", "location": "Shangri-La, Crowne Plaza", "available": true }] },
        "Shaw Boulevard": { "address": "Shaw Blvd cor. EDSA, Mandaluyong", "phone": "N/A", "description": "Connects to several high-end malls and the Greenfield District.", "amenities": [{ "name": "Mall Connection", "icon": "ShoppingBag", "location": "Shangri-La Plaza, Starmall", "available": true }, { "name": "Ticket Counter & Vending Machine", "icon": "Ticket", "available": true }] },
        "Boni": { "address": "EDSA cor. Boni Ave, Mandaluyong", "phone": "N/A", "description": "Connected to SM Light Mall and Robinsons Forum.", "amenities": [{ "name": "Mall Connection", "icon": "ShoppingBag", "location": "SM Light Mall, Robinsons Forum", "available": true }, { "name": "Ticket Counter", "icon": "Ticket", "available": true }] },
        "Guadalupe": { "address": "EDSA, Guadalupe, Makati", "phone": "N/A", "description": "Serves the busy Guadalupe commercial center and provides access to the Pasig River Ferry.", "amenities": [{ "name": "Nearby Mall", "icon": "ShoppingBag", "location": "Guadalupe Commercial Complex", "available": true }, { "name": "Line Transfer", "icon": "FaTrain", "location": "Pasig River Ferry", "available": true }, { "name": "Ticket Counter", "icon": "Ticket", "available": true }] },
        "Buendia": { "address": "EDSA cor. Buendia Ave, Makati", "phone": "N/A", "description": "Serves the northern part of the Makati Central Business District.", "amenities": [{ "name": "Ticket Counter", "icon": "Ticket", "available": true }] },
        "Ayala": { "address": "Ayala Ave cor. EDSA, Makati", "phone": "N/A", "description": "Serves the Ayala Center and the Makati Central Business District.", "amenities": [{ "name": "Mall Connection", "icon": "ShoppingBag", "location": "SM Makati, Glorietta", "available": true }, { "name": "Ticket Counter & Vending Machine", "icon": "Ticket", "available": true }, { "name": "PWD Facilities", "icon": "Accessibility", "available": true }, { "name": "Nearby Hotels", "icon": "BedDouble", "location": "Fairmont, Raffles", "available": true }] },
        "Magallanes": { "address": "EDSA, Magallanes, Makati", "phone": "N/A", "description": "Connected to Alphaland Southgate Mall and serves as an interchange for PNR.", "amenities": [{ "name": "Mall Connection", "icon": "ShoppingBag", "location": "Alphaland Southgate Mall", "available": true }, { "name": "Line Transfer", "icon": "FaTrain", "location": "PNR EDSA Station (short walk)", "available": true }, { "name": "Ticket Counter", "icon": "Ticket", "available": true }] },
        "Taft Avenue": { "address": "Taft Ave cor. EDSA, Pasay", "phone": "N/A", "description": "Southern terminus and interchange station with LRT-1 EDSA.", "amenities": [{ "name": "Line Transfer", "icon": "FaTrain", "location": "LRT-1 EDSA", "available": true }, { "name": "Ticket Counter & Vending Machine", "icon": "Ticket", "available": true }] }
    },
    "PNR": {
        "Governor Pascual": { "address": "Gov. Pascual Ave, Malabon", "phone": "N/A", "description": "Serves the northern part of Malabon.", "amenities": [{ "name": "Ticket Counter", "icon": "Ticket", "available": true }] },
        "Caloocan": { "address": "Samson Road, Caloocan", "phone": "N/A", "description": "Serves the city of Caloocan.", "amenities": [{ "name": "Ticket Counter", "icon": "Ticket", "available": true }] },
        "Solis": { "address": "Solis St, Tondo, Manila", "phone": "N/A", "description": "A station in Tondo, Manila.", "amenities": [{ "name": "Ticket Counter", "icon": "Ticket", "available": true }] },
        "Tutuban": { "address": "Tutuban Center, Divisoria, Manila", "phone": "(02) 8319-0043", "hours": "Open 24/7", "description": "Tutuban Station is Manila's central railway terminal operated by Philippine National Railways (PNR).", "amenities": [{ "name": "Free WiFi", "icon": "Wifi", "location": "Available in concourse", "available": true }, { "name": "Food Court & Restaurants", "icon": "UtensilsCrossed", "location": "Tutuban Center Mall", "available": true }, { "name": "Parking", "icon": "ParkingCircle", "location": "Tutuban Center Parking", "available": true }, { "name": "Tutuban Center Mall", "icon": "ShoppingBag", "location": "Connected to station", "available": true }, { "name": "PWD Facilities", "icon": "Accessibility", "location": "Ramps and designated areas", "available": true }, { "name": "Customer Service", "icon": "UserCheck", "location": "Main lobby", "available": true }, { "name": "Ticket Counters", "icon": "Ticket", "location": "Main concourse", "available": true }, { "name": "Nearby Hotels", "icon": "BedDouble", "location": "Budget hotels in the area", "available": true }] },
        "Blumentritt": { "address": "Blumentritt Road, Manila", "phone": "N/A", "description": "Interchange with the LRT-1 Blumentritt station.", "amenities": [{ "name": "Line Transfer", "icon": "FaTrain", "location": "LRT-1 Blumentritt", "available": true }, { "name": "Nearby Market", "icon": "ShoppingBag", "location": "Blumentritt Market", "available": true }, { "name": "Ticket Counter", "icon": "Ticket", "available": true }] },
        "Laon Laan": { "address": "Laon Laan St, Sampaloc, Manila", "phone": "N/A", "description": "Serves the Sampaloc area.", "amenities": [{ "name": "Ticket Counter", "icon": "Ticket", "available": true }] },
        "España": { "address": "España Blvd, Sampaloc, Manila", "phone": "N/A", "description": "Located near the University of Santo Tomas.", "amenities": [{ "name": "Nearby Universities", "icon": "FaLandmark", "location": "University of Santo Tomas", "available": true }, { "name": "Ticket Counter", "icon": "Ticket", "available": true }] },
        "Santa Mesa": { "address": "Ramon Magsaysay Blvd, Manila", "phone": "N/A", "description": "Located near the SM City Sta. Mesa.", "amenities": [{ "name": "Nearby Mall", "icon": "ShoppingBag", "location": "SM City Sta. Mesa", "available": true }, { "name": "Ticket Counter", "icon": "Ticket", "available": true }] },
        "Pandacan": { "address": "Beata St, Pandacan, Manila", "phone": "N/A", "description": "Serves the district of Pandacan.", "amenities": [{ "name": "Ticket Counter", "icon": "Ticket", "available": true }] },
        "Paco": { "address": "Quirino Ave Ext, Paco, Manila", "phone": "N/A", "description": "Located near the historic Paco Park and Cemetery.", "amenities": [{ "name": "Nearby Landmark", "icon": "FaLandmark", "location": "Paco Park", "available": true }, { "name": "Ticket Counter", "icon": "Ticket", "available": true }] },
        "San Andres": { "address": "San Andres St, San Andres Bukid, Manila", "phone": "N/A", "description": "Serves the San Andres Market area.", "amenities": [{ "name": "Nearby Market", "icon": "ShoppingBag", "location": "San Andres Market", "available": true }, { "name": "Ticket Counter", "icon": "Ticket", "available": true }] },
        "Vito Cruz": { "address": "Pablo Ocampo St, Makati", "phone": "N/A", "description": "Serves the area near the boundary of Manila and Makati.", "amenities": [{ "name": "Ticket Counter", "icon": "Ticket", "available": true }] },
        "Dela Rosa": { "address": "Dela Rosa St, Pio del Pilar, Makati", "phone": "N/A", "description": "Located within the Makati business district.", "amenities": [{ "name": "Ticket Counter", "icon": "Ticket", "available": true }] },
        "Pasay Road": { "address": "Arnaiz Ave, Pio del Pilar, Makati", "phone": "N/A", "description": "Serves the commercial area along Arnaiz Avenue.", "amenities": [{ "name": "Nearby Shopping", "icon": "ShoppingBag", "location": "Waltermart Makati", "available": true }, { "name": "Ticket Counter", "icon": "Ticket", "available": true }] },
        "EDSA": { "address": "EDSA, Magallanes, Makati", "phone": "N/A", "description": "Interchange station with the MRT-3 Magallanes station.", "amenities": [{ "name": "Line Transfer", "icon": "FaTrain", "location": "MRT-3 Magallanes (short walk)", "available": true }, { "name": "Ticket Counter", "icon": "Ticket", "available": true }] },
        "Nichols": { "address": "East Service Road, Pasay", "phone": "N/A", "description": "Serves the area near Villamor Air Base.", "amenities": [{ "name": "Ticket Counter", "icon": "Ticket", "available": true }] },
        "FTI": { "address": "East Service Road, Taguig", "phone": "N/A", "description": "Located near the FTI Complex in Taguig.", "amenities": [{ "name": "Ticket Counter", "icon": "Ticket", "available": true }] },
        "Bicutan": { "address": "General Santos Ave, Bicutan, Taguig", "phone": "N/A", "description": "Serves the Bicutan area and is connected to SM City Bicutan.", "amenities": [{ "name": "Nearby Mall", "icon": "ShoppingBag", "location": "SM City Bicutan", "available": true }, { "name": "Ticket Counter", "icon": "Ticket", "available": true }] },
        "Sucat": { "address": "Meralco Road, Sucat, Muntinlupa", "phone": "N/A", "description": "Serves the Sucat area in Muntinlupa.", "amenities": [{ "name": "Ticket Counter", "icon": "Ticket", "available": true }] },
        "Alabang": { "address": "Alabang, Muntinlupa", "phone": "N/A", "description": "A major PNR station in the south, serving large residential and commercial areas.", "amenities": [{ "name": "Nearby Mall", "icon": "ShoppingBag", "location": "Festival Mall, Starmall Alabang", "available": true }, { "name": "Ticket Counter", "icon": "Ticket", "available": true }, { "name": "Nearby Hotels", "icon": "BedDouble", "location": "Acacia Hotel, Vivere Hotel", "available": true }] }
    }
}

